[
  {
    "id": "J000442718",
    "name": "いけす料理 卑弥呼",
    "group": "alcohol_meat",
    "genre": "居酒屋",
    "lat": 35.4756620571,
    "lng": 135.3949399165
  },
  {
    "id": "J000442750",
    "name": "栄亭 舞鶴店",
    "group": "alcohol_meat",
    "genre": "焼肉・ホルモン",
    "lat": 35.4676588005,
    "lng": 135.3945857856
  },
  {
    "id": "J000442771",
    "name": "加寿美",
    "group": "meal",
    "genre": "和食",
    "lat": 35.4437308278,
    "lng": 135.3287019074
  },
  {
    "id": "J000442894",
    "name": "手打ちうどん そば 居食屋 凡愚",
    "group": "meal",
    "genre": "和食",
    "lat": 35.4462230453,
    "lng": 135.3288520843
  },
  {
    "id": "J000505743",
    "name": "cafe de 十番館 本店",
    "group": "meal",
    "genre": "イタリアン・フレンチ",
    "lat": 35.4681268277,
    "lng": 135.3956565076
  },
  {
    "id": "J000706681",
    "name": "美人韓 舞鶴店",
    "group": "alcohol_meat",
    "genre": "居酒屋",
    "lat": 35.4612708075,
    "lng": 135.389708387
  },
  {
    "id": "J000776403",
    "name": "かっぱ寿司 東舞鶴店",
    "group": "meal",
    "genre": "和食",
    "lat": 35.4774523523,
    "lng": 135.4043879055
  },
  {
    "id": "J000776415",
    "name": "モルト ヴォーノ ニーナ",
    "group": "meal",
    "genre": "イタリアン・フレンチ",
    "lat": 35.4808726141,
    "lng": 135.4320978312
  },
  {
    "id": "J000969480",
    "name": "焼肉 八島丹山 行永店",
    "group": "alcohol_meat",
    "genre": "焼肉・ホルモン",
    "lat": 35.4611496519,
    "lng": 135.3990103454
  },
  {
    "id": "J000995546",
    "name": "モルト ボーノ アンナ",
    "group": "meal",
    "genre": "イタリアン・フレンチ",
    "lat": 35.4337550574,
    "lng": 135.3299468697
  },
  {
    "id": "J001115159",
    "name": "鶏料理とおでんのお店 とり屋 鳥右衛門",
    "group": "alcohol_meat",
    "genre": "居酒屋",
    "lat": 35.4745704582,
    "lng": 135.3925040596
  },
  {
    "id": "J001115165",
    "name": "cafe&diner GARDEN CAFE ガーデンカフェ",
    "group": "meal",
    "genre": "イタリアン・フレンチ",
    "lat": 35.4428262103,
    "lng": 135.3287438799
  },
  {
    "id": "J001118995",
    "name": "魚民 東舞鶴店",
    "group": "alcohol_meat",
    "genre": "居酒屋",
    "lat": 35.4736872468,
    "lng": 135.3933734582
  },
  {
    "id": "J001161862",
    "name": "焼肉 味道楽",
    "group": "alcohol_meat",
    "genre": "焼肉・ホルモン",
    "lat": 35.4693988882,
    "lng": 135.3949901329
  },
  {
    "id": "J001190971",
    "name": "牛角 東舞鶴店",
    "group": "alcohol_meat",
    "genre": "焼肉・ホルモン",
    "lat": 35.4609860457,
    "lng": 135.386646446
  },
  {
    "id": "J001200402",
    "name": "WASABI わさび",
    "group": "alcohol_meat",
    "genre": "居酒屋",
    "lat": 35.4743702894,
    "lng": 135.3961481884
  },
  {
    "id": "J001201198",
    "name": "舞鶴魚料理 魚源",
    "group": "meal",
    "genre": "和食",
    "lat": 35.4431261613,
    "lng": 135.3281217023
  },
  {
    "id": "J001203484",
    "name": "シュフロア",
    "group": "cafe_sweets",
    "genre": "カフェ・スイーツ",
    "lat": 35.4614746972,
    "lng": 135.3907377331
  },
  {
    "id": "J001208703",
    "name": "アメイロ ビストロ アルル",
    "group": "meal",
    "genre": "イタリアン・フレンチ",
    "lat": 35.4531441989,
    "lng": 135.3290021056
  },
  {
    "id": "J001208972",
    "name": "ZERO ONE 西舞鶴駅前店",
    "group": "other",
    "genre": "バー・カクテル",
    "lat": 35.442695657,
    "lng": 135.3282003215
  },
  {
    "id": "J001215589",
    "name": "NICK BEER ニックビアー ステーキ&クラフトビール",
    "group": "meal",
    "genre": "洋食",
    "lat": 35.4729428886,
    "lng": 135.3934095924
  },
  {
    "id": "J001233031",
    "name": "焼肉 牛々亭",
    "group": "alcohol_meat",
    "genre": "焼肉・ホルモン",
    "lat": 35.4741155973,
    "lng": 135.3961870828
  },
  {
    "id": "J001260714",
    "name": "焼肉 八島丹山 本店",
    "group": "alcohol_meat",
    "genre": "焼肉・ホルモン",
    "lat": 35.474770841,
    "lng": 135.3979277389
  },
  {
    "id": "J001267676",
    "name": "cafe321andTAMA カフェミニピンアンドタマ",
    "group": "cafe_sweets",
    "genre": "カフェ・スイーツ",
    "lat": 35.4513116526,
    "lng": 135.3299018125
  },
  {
    "id": "J001275627",
    "name": "BABY FACE PLANET'S 舞鶴店",
    "group": "meal",
    "genre": "洋食",
    "lat": 35.4505334816,
    "lng": 135.3211989998
  },
  {
    "id": "J001285535",
    "name": "鶏笑 舞鶴店",
    "group": "alcohol_meat",
    "genre": "居酒屋",
    "lat": 35.445024349,
    "lng": 135.3429961513
  },
  {
    "id": "J003410503",
    "name": "cafe hana カフェ ハナ",
    "group": "cafe_sweets",
    "genre": "カフェ・スイーツ",
    "lat": 35.4481077969,
    "lng": 135.3274913053
  },
  {
    "id": "J003410923",
    "name": "MAIZURU BRICK マイヅルブリック",
    "group": "alcohol_meat",
    "genre": "居酒屋",
    "lat": 35.4748218453,
    "lng": 135.3936497826
  },
  {
    "id": "J003686006",
    "name": "お好み焼き鉄板焼きバンビ",
    "group": "other",
    "genre": "お好み焼き・もんじゃ",
    "lat": 35.4728076278,
    "lng": 135.3934729249
  },
  {
    "id": "J003715376",
    "name": "御台所 セバル",
    "group": "alcohol_meat",
    "genre": "居酒屋",
    "lat": 35.4442976872,
    "lng": 135.3278541848
  },
  {
    "id": "J003736064",
    "name": "バーグメン",
    "group": "meal",
    "genre": "洋食",
    "lat": 35.4761590278,
    "lng": 135.3984701419
  },
  {
    "id": "J003916214",
    "name": "レストラン海望亭",
    "group": "meal",
    "genre": "和食",
    "lat": 35.4768068944,
    "lng": 135.3936152713
  },
  {
    "id": "J003950008",
    "name": "BLUE DINING AITSURA ブルーダイニングアイツラ",
    "group": "meal",
    "genre": "和食",
    "lat": 35.450663905,
    "lng": 135.3280228351
  },
  {
    "id": "J004004694",
    "name": "MOUNTAIN BAR&KITCHEN マウンテンバーアンドキッチン",
    "group": "other",
    "genre": "ダイニングバー・バル",
    "lat": 35.4481099496,
    "lng": 135.3245465661
  },
  {
    "id": "J004422102",
    "name": "新八 舞鶴城南店",
    "group": "alcohol_meat",
    "genre": "居酒屋",
    "lat": 35.4266551075,
    "lng": 135.321058184
  },
  {
    "id": "J004509787",
    "name": "カンティプールアジアン舞鶴 KantipurMaizuru",
    "group": "other",
    "genre": "アジア・エスニック料理",
    "lat": 35.4770381985,
    "lng": 135.4029191613
  }
]
